[
  {
    "id": 1,
    "name": "Çankaya Bulvarı",
    "city": "Ankara",
    "category": "Portre",
    "lens": "135mm F2",
    "goldenHour": "17:50",
    "direction": "Güney-Batı",
    "rating": 5,
    "description": "Geniş kaldırımlar ve ağaç sıraları ile muhteşem altın saat ışığı. Uzun odak için ideal perspektif.",
    "tags": ["Altın Saat", "135mm Uygun", "Yaya"],
    "lat": 39.9028,
    "lng": 32.8589,
    "image": "🏙️"
  },
  {
    "id": 2,
    "name": "Atatürk Orman Çiftliği",
    "city": "Ankara",
    "category": "Otomobil Çekimi",
    "lens": "85mm F1.8",
    "goldenHour": "18:10",
    "direction": "Doğu",
    "rating": 4,
    "description": "Uzun düz yollar ve çevre yeşilliği ile otomobil çekimleri için mükemmel. Sabah saatlerinde az trafik.",
    "tags": ["Otomobil Çekimi", "Geniş Alan", "Sabah"],
    "lat": 39.9547,
    "lng": 32.8116,
    "image": "🚗"
  },
  {
    "id": 3,
    "name": "Anıtkabir Çevresi",
    "city": "Ankara",
    "category": "Portre",
    "lens": "135mm F2",
    "goldenHour": "07:28",
    "direction": "Kuzey-Doğu",
    "rating": 5,
    "description": "Tarihi mimari arka planlar ve açık alan kompozisyonları. Sabah altın saatinde olağanüstü ışık kalitesi.",
    "tags": ["135mm Uygun", "Altın Saat", "Tarihi"],
    "lat": 39.9257,
    "lng": 32.8379,
    "image": "🏛️"
  },
  {
    "id": 4,
    "name": "Kuğulu Park",
    "city": "Ankara",
    "category": "Portre",
    "lens": "85mm F1.8",
    "goldenHour": "17:45",
    "direction": "Batı",
    "rating": 4,
    "description": "Su yansımaları ve doğal bokeh için ideal. Göl kenarında güneş batımı pozları çekilebilir.",
    "tags": ["Su Yansıması", "Doğal", "Bokeh"],
    "lat": 39.8887,
    "lng": 32.8602,
    "image": "🦢"
  },
  {
    "id": 5,
    "name": "Gençlik Parkı",
    "city": "Ankara",
    "category": "Portre",
    "lens": "50mm F1.4",
    "goldenHour": "18:00",
    "direction": "Güney",
    "rating": 3,
    "description": "Kent merkezinde ulaşımı kolay lokasyon. Çeşitli arka plan seçenekleri ve iyi ışık koridorları mevcut.",
    "tags": ["Geniş Açı", "Kentsel", "Kolay Erişim"],
    "lat": 39.9310,
    "lng": 32.8532,
    "image": "🌳"
  },
  {
    "id": 6,
    "name": "Çankaya Köşkü Yolu",
    "city": "Ankara",
    "category": "Otomobil Çekimi",
    "lens": "135mm F2",
    "goldenHour": "07:35",
    "direction": "Kuzey",
    "rating": 5,
    "description": "Virajlı yollar ve çam ormanı arka planı. Aksiyon çekimleri için panning fırsatı sunan mükemmel ıssız hat.",
    "tags": ["Otomobil Çekimi", "135mm Uygun", "Orman"],
    "lat": 39.8791,
    "lng": 32.8553,
    "image": "🛣️"
  },
  {
    "id": 7,
    "name": "Boğaziçi Köprüsü Altı",
    "city": "İstanbul",
    "category": "Otomobil Çekimi",
    "lens": "135mm F2",
    "goldenHour": "17:55",
    "direction": "Batı",
    "rating": 5,
    "description": "Köprü silüeti ve Boğaz arka planıyla eşsiz bir otomobil çekim noktası. Altın saatte olağanüstü ışık.",
    "tags": ["Otomobil Çekimi", "135mm Uygun", "Altın Saat"],
    "lat": 41.0462,
    "lng": 29.0337,
    "image": "🌉"
  },
  {
    "id": 8,
    "name": "Bebek Sahili",
    "city": "İstanbul",
    "category": "Portre",
    "lens": "85mm F1.8",
    "goldenHour": "18:05",
    "direction": "Güney-Batı",
    "rating": 5,
    "description": "Boğaz manzarası önünde muhteşem portre fırsatı. Su yansımaları ve doğal ışık mükemmel bokeh sağlar.",
    "tags": ["Su Yansıması", "Bokeh", "Altın Saat"],
    "lat": 41.0780,
    "lng": 29.0430,
    "image": "🌊"
  },
  {
    "id": 9,
    "name": "Emirgan Korusu",
    "city": "İstanbul",
    "category": "Portre",
    "lens": "50mm F1.4",
    "goldenHour": "07:40",
    "direction": "Doğu",
    "rating": 4,
    "description": "Ağaçlık alan ve doğal bokeh için ideal. Sabah saatlerinde sis ve ışık muhteşem atmosfer yaratır.",
    "tags": ["Doğal", "Bokeh", "Sabah"],
    "lat": 41.1001,
    "lng": 29.0550,
    "image": "🌿"
  },
  {
    "id": 10,
    "name": "E-5 TEM Bağlantısı",
    "city": "İstanbul",
    "category": "Otomobil Çekimi",
    "lens": "135mm F2",
    "goldenHour": "07:30",
    "direction": "Kuzey-Doğu",
    "rating": 4,
    "description": "Geniş şeritli düzlük ve üst geçitler ile dinamik otomobil çekimleri için ideal. Sabah erken saatlerde boş.",
    "tags": ["Otomobil Çekimi", "Geniş Alan", "135mm Uygun"],
    "lat": 41.0600,
    "lng": 28.9200,
    "image": "🛣️"
  },
  {
    "id": 11,
    "name": "Kordon Sahil Yolu",
    "city": "İzmir",
    "category": "Portre",
    "lens": "85mm F1.8",
    "goldenHour": "18:20",
    "direction": "Batı",
    "rating": 5,
    "description": "Ege denizi önünde altın saat portresi için Türkiye'nin en iyi lokasyonlarından. Uzun sahil boyunca çeşitli kompozisyonlar.",
    "tags": ["Altın Saat", "Su Yansıması", "Bokeh"],
    "lat": 38.4189,
    "lng": 27.1287,
    "image": "🏖️"
  },
  {
    "id": 12,
    "name": "Kadifekale Yokuşu",
    "city": "İzmir",
    "category": "Otomobil Çekimi",
    "lens": "135mm F2",
    "goldenHour": "07:25",
    "direction": "Doğu",
    "rating": 4,
    "description": "Tarihi kale surları ve şehir panoraması önünde virajlı yol. Sabah altın saatinde sinematik çekim fırsatı.",
    "tags": ["Otomobil Çekimi", "Tarihi", "135mm Uygun"],
    "lat": 38.4045,
    "lng": 27.1430,
    "image": "🏰"
  },
  {
    "id": 13,
    "name": "Kırşehir Kalesi Çevresi",
    "city": "Kırşehir",
    "category": "Portre",
    "lens": "85mm F1.8",
    "goldenHour": "17:48",
    "direction": "Güney-Batı",
    "rating": 4,
    "description": "Tarihi kale ve şehir silueti önünde portre için sakin ve özgün bir lokasyon. Altın saatte taş dokular mükemmel ışık alır.",
    "tags": ["Tarihi", "Altın Saat", "85mm Uygun"],
    "lat": 39.1468,
    "lng": 34.1620,
    "image": "🏰"
  },
  {
    "id": 14,
    "name": "Kırşehir-Ankara Yolu",
    "city": "Kırşehir",
    "category": "Otomobil Çekimi",
    "lens": "135mm F2",
    "goldenHour": "07:32",
    "direction": "Kuzey",
    "rating": 4,
    "description": "Düz ve geniş karayolu, Orta Anadolu bozkır arka planı. Az trafikli sabah saatlerinde panning çekim için mükemmel.",
    "tags": ["Otomobil Çekimi", "135mm Uygun", "Sabah"],
    "lat": 39.2100,
    "lng": 34.1500,
    "image": "🛣️"
  },
  {
    "id": 15,
    "name": "Hirfanlı Baraj Gölü",
    "city": "Kırşehir",
    "category": "Portre",
    "lens": "50mm F1.4",
    "goldenHour": "18:02",
    "direction": "Batı",
    "rating": 5,
    "description": "Geniş baraj gölü yansımaları ve açık ufuk. Gün batımı portreleri için Kırşehir'in en iyi noktası.",
    "tags": ["Su Yansıması", "Altın Saat", "Doğal"],
    "lat": 39.0230,
    "lng": 33.7890,
    "image": "💧"
  }
]
